time,car_loc_x,car_loc_y,car_loc_z,car_rot_pitch,car_rot_yaw,car_rot_roll,car_vel_x,car_vel_y,car_vel_z,car_ang_x,car_ang_y,car_ang_z,throttle,steer,pitch,yaw,roll,jump,boost,handbrake
0.0,0.17999999225139618,0.0,17.0,-0.009587380103766918,0.0,0.0,0.0,0.0,0.3409999907016754,0.0,-0.0004099999787285924,0.0,0.0,0.0,0.0,0.0,0.0,0,1,0
0.00830078125,0.17999999225139618,0.0,17.0,-0.009587380103766918,0.0,0.0,0.0,0.0,0.3409999907016754,0.0,-0.0004099999787285924,0.0,0.0,0.0,0.0,0.0,0.0,0,1,0
0.01666259765625,0.35999998450279236,0.0,17.0,-0.009587380103766918,0.0,0.0,21.590999603271484,0.0,0.26099997758865356,0.0,-0.0012099999003112316,0.0,0.0,0.0,0.0,0.0,0.0,0,1,0
0.02496337890625,0.7199999690055847,0.0,17.0,-0.009587380103766918,0.0,0.0,43.000999450683594,0.0,0.20099999010562897,0.0,-0.0016099999193102121,0.0,0.0,0.0,0.0,0.0,0.0,0,1,0
0.0333251953125,1.2599999904632568,0.0,17.0,-0.009587380103766918,0.0,0.0,64.22100067138672,0.0,0.16099999845027924,0.0,-0.0017099998658522964,0.0,0.0,0.0,0.0,0.0,0.0,0,1,0
0.0416259765625,1.96999990940094,0.0,17.0,-0.009587380103766918,0.0,0.0,85.26099395751953,0.0,0.14100000262260437,0.0,-0.0017099998658522964,0.0,0.0,0.0,0.0,0.0,0.0,0,1,0
0.04998779296875,2.8499999046325684,0.0,17.0,-0.009587380103766918,0.0,0.0,106.1209945678711,0.0,0.12099999934434891,0.0,-0.0017099998658522964,0.0,0.0,0.0,0.0,0.0,0.0,0,1,0
0.05828857421875,3.9099998474121094,0.0,17.0,-0.009587380103766918,0.0,0.0,126.80099487304688,0.0,0.11100000143051147,0.0,-0.0016099999193102121,0.0,0.0,0.0,0.0,0.0,0.0,0,1,0
0.066650390625,5.139999866485596,0.0,17.0,-0.009587380103766918,0.0,0.0,147.31100463867188,0.0,0.10099999606609344,0.0,-0.001509999972768128,0.0,0.0,0.0,0.0,0.0,0.0,0,1,0
0.074951171875,6.539999961853027,0.0,17.0,-0.009587380103766918,0.0,0.0,167.64100646972656,0.0,0.10099999606609344,0.0,-0.0013099999632686377,0.0,0.0,0.0,0.0,0.0,0.0,0,1,0
0.08331298828125,8.109999656677246,0.0,17.0,-0.009491506032645702,0.0,0.0,187.80101013183594,0.0,0.10099999606609344,0.0,-0.0012099999003112316,0.0,0.0,0.0,0.0,0.0,0.0,0,1,0
0.09161376953125,9.84000015258789,0.0,17.0,-0.009491506032645702,0.0,0.0,207.781005859375,0.0,0.10099999606609344,0.0,-0.0010099998908117414,0.0,0.0,0.0,0.0,0.0,0.0,0,1,0
0.0999755859375,11.739999771118164,0.0,17.0,-0.009491506032645702,0.0,0.0,227.59100341796875,0.0,0.10099999606609344,0.0,-0.0008099999977275729,0.0,0.0,0.0,0.0,0.0,0.0,0,1,0
0.10833740234375,13.799999237060547,0.0,17.0,-0.009491506032645702,0.0,0.0,247.2310028076172,0.0,0.10099999606609344,0.0,-0.0007099999929778278,0.0,0.0,0.0,0.0,0.0,0.0,0,1,0
0.11663818359375,16.020000457763672,0.0,17.0,-0.009491506032645702,0.0,0.0,266.70098876953125,0.0,0.10099999606609344,0.0,-0.0005099999834783375,0.0,0.0,0.0,0.0,0.0,0.0,0,1,0
0.125,18.399999618530273,0.0,17.0,-0.009491506032645702,0.0,0.0,286.010986328125,0.0,0.10099999606609344,0.0,-0.0004099999787285924,0.0,0.0,0.0,0.0,0.0,0.0,0,1,0
0.13330078125,20.939998626708984,0.0,17.0,-0.009491506032645702,0.0,0.0,305.1510009765625,0.0,0.10099999606609344,0.0,-0.00030999997397884727,0.0,0.0,0.0,0.0,0.0,0.0,0,1,0
0.14166259765625,23.639999389648438,0.0,17.0,-0.009491506032645702,0.0,0.0,324.1310119628906,0.0,0.10099999606609344,0.0,-0.00030999997397884727,0.0,0.0,0.0,0.0,0.0,0.0,0,1,0
0.14996337890625,26.5,0.0,17.0,-0.009491506032645702,0.0,0.0,342.9410095214844,0.0,0.10099999606609344,0.0,-0.00030999997397884727,0.0,0.0,0.0,0.0,0.0,0.0,0,1,0
0.1583251953125,29.510000228881836,0.0,17.0,-0.009491506032645702,0.0,0.0,361.59100341796875,0.0,0.10099999606609344,0.0,-0.00030999997397884727,0.0,0.0,0.0,0.0,0.0,0.0,0,1,0
0.1666259765625,32.68000030517578,0.0,17.0,-0.009491506032645702,0.0,0.0,380.08099365234375,0.0,0.10099999606609344,0.0,-0.0002099999983329326,0.0,0.0,0.0,0.0,0.0,0.0,0,1,0
0.17498779296875,36.0,0.0,17.0,-0.009491506032645702,0.0,0.0,398.4209899902344,0.0,0.10099999606609344,0.0,-0.0002099999983329326,0.0,0.0,0.0,0.0,0.0,0.0,0,1,0
0.18328857421875,39.46999740600586,0.0,17.0,-0.009491506032645702,0.0,0.0,416.6009826660156,0.0,0.10099999606609344,0.0,-0.0002099999983329326,0.0,0.0,0.0,0.0,0.0,0.0,0,1,0
0.191650390625,43.09000015258789,0.0,17.0,-0.009491506032645702,0.0,0.0,434.6210021972656,0.0,0.10099999606609344,0.0,-0.0002099999983329326,0.0,0.0,0.0,0.0,0.0,0.0,0,1,0
0.199951171875,46.86000061035156,0.0,17.0,-0.009491506032645702,0.0,0.0,452.4909973144531,0.0,0.10099999606609344,0.0,-0.0002099999983329326,0.0,0.0,0.0,0.0,0.0,0.0,0,1,0
0.20831298828125,50.779998779296875,0.0,17.0,-0.009491506032645702,0.0,0.0,470.20098876953125,0.0,0.10099999606609344,0.0,-0.00010999999358318746,0.0,0.0,0.0,0.0,0.0,0.0,0,1,0
0.21661376953125,54.84000015258789,0.0,17.0,-0.009491506032645702,0.0,0.0,487.760986328125,0.0,0.10099999606609344,0.0,-0.00010999999358318746,0.0,0.0,0.0,0.0,0.0,0.0,0,1,0
0.2249755859375,59.04999923706055,0.0,17.0,-0.009491506032645702,0.0,0.0,505.1709899902344,0.0,0.10099999606609344,0.0,-0.00010999999358318746,0.0,0.0,0.0,0.0,0.0,0.0,0,1,0
0.23333740234375,63.39999771118164,0.0,17.0,-0.009491506032645702,0.0,0.0,522.4309692382812,0.0,0.10099999606609344,0.0,-0.00010999999358318746,0.0,0.0,0.0,0.0,0.0,0.0,0,1,0
0.24163818359375,67.9000015258789,0.0,17.0,-0.009491506032645702,0.0,0.0,539.5509643554688,0.0,0.10099999606609344,0.0,0.0,0.0,0.0,0.0,0.0,0.0,0.0,0,1,0
0.25,72.54000091552734,0.0,17.0,-0.009491506032645702,0.0,0.0,556.5209350585938,0.0,0.10099999606609344,0.0,0.0,0.0,0.0,0.0,0.0,0.0,0.0,0,1,0
0.25830078125,77.31999969482422,0.0,17.0,-0.009491506032645702,0.0,0.0,573.3409423828125,0.0,0.10099999606609344,0.0,0.0,0.0,0.0,0.0,0.0,0.0,0.0,0,1,0
0.26666259765625,82.23999786376953,0.0,17.0,-0.009491506032645702,0.0,0.0,590.0209350585938,0.0,0.10099999606609344,0.0,0.0,0.0,0.0,0.0,0.0,0.0,0.0,0,1,0
0.27496337890625,87.29000091552734,0.0,17.0,-0.009491506032645702,0.0,0.0,606.5609741210938,0.0,0.10099999606609344,0.0,0.0,0.0,0.0,0.0,0.0,0.0,0.0,0,1,0
0.2833251953125,92.47999572753906,0.0,17.0,-0.009491506032645702,0.0,0.0,622.9509887695312,0.0,0.10099999606609344,0.0,0.0,0.0,0.0,0.0,0.0,0.0,0.0,0,1,0
0.2916259765625,97.80999755859375,0.0,17.0,-0.009491506032645702,0.0,0.0,639.2009887695312,0.0,0.10099999606609344,0.0,0.0,0.0,0.0,0.0,0.0,0.0,0.0,0,1,0
0.29998779296875,103.2699966430664,0.0,17.0,-0.009491506032645702,0.0,0.0,655.3109741210938,0.0,0.10099999606609344,0.0,0.0,0.0,0.0,0.0,0.0,0.0,0.0,0,1,0
0.30828857421875,108.86000061035156,0.0,17.0,-0.009491506032645702,0.0,0.0,671.2909545898438,0.0,0.10099999606609344,0.0,0.0,0.0,0.0,0.0,0.0,0.0,0.0,0,1,0
0.316650390625,114.58999633789062,0.0,17.0,-0.009491506032645702,0.0,0.0,687.1309814453125,0.0,0.10099999606609344,0.0,0.0,0.0,0.0,0.0,0.0,0.0,0.0,0,1,0
0.324951171875,120.44999694824219,0.0,17.0,-0.009491506032645702,0.0,0.0,702.8309326171875,0.0,0.10099999606609344,0.0,0.0,0.0,0.0,0.0,0.0,0.0,0.0,0,1,0
0.33331298828125,126.43999481201172,0.0,17.0,-0.009491506032645702,0.0,0.0,718.4009399414062,0.0,0.10099999606609344,0.0,0.0,0.0,0.0,0.0,0.0,0.0,0.0,0,1,0
0.34161376953125,132.55999755859375,0.0,17.0,-0.009491506032645702,0.0,0.0,733.8409423828125,0.0,0.10099999606609344,0.0,0.0,0.0,0.0,0.0,0.0,0.0,0.0,0,1,0
0.3499755859375,138.8000030517578,0.0,17.0,-0.009491506032645702,0.0,0.0,749.1409301757812,0.0,0.10099999606609344,0.0,0.0,0.0,0.0,0.0,0.0,0.0,0.0,0,1,0
0.35833740234375,145.1699981689453,0.0,17.0,-0.009491506032645702,0.0,0.0,764.3109741210938,0.0,0.10099999606609344,0.0,0.0,0.0,0.0,0.0,0.0,0.0,0.0,0,1,0
0.36663818359375,151.66000366210938,0.0,17.0,-0.009491506032645702,0.0,0.0,779.3509521484375,0.0,0.10099999606609344,0.0,0.0,0.0,0.0,0.0,0.0,0.0,0.0,0,1,0
0.375,158.27999877929688,0.0,17.0,-0.009491506032645702,0.0,0.0,794.260986328125,0.0,0.10099999606609344,0.0,0.0,0.0,0.0,0.0,0.0,0.0,0.0,0,1,0
0.38330078125,165.01998901367188,0.0,17.0,-0.009491506032645702,0.0,0.0,809.0509643554688,0.0,0.10099999606609344,0.0,0.00010999999358318746,0.0,0.0,0.0,0.0,0.0,0.0,0,1,0
0.39166259765625,171.87998962402344,0.0,17.0,-0.009491506032645702,0.0,0.0,823.7109375,0.0,0.10099999606609344,0.0,0.00010999999358318746,0.0,0.0,0.0,0.0,0.0,0.0,0,1,0
0.39996337890625,178.8699951171875,0.0,17.0,-0.009491506032645702,0.0,0.0,838.240966796875,0.0,0.10099999606609344,0.0,0.00010999999358318746,0.0,0.0,0.0,0.0,0.0,0.0,0,1,0
0.4083251953125,185.97999572753906,0.0,17.0,-0.009491506032645702,0.0,0.0,852.6509399414062,0.0,0.10099999606609344,0.0,0.00010999999358318746,0.0,0.0,0.0,0.0,0.0,0.0,0,1,0
0.4166259765625,193.1999969482422,0.0,17.0,-0.009491506032645702,0.0,0.0,866.9309692382812,0.0,0.10099999606609344,0.0,0.0002099999983329326,0.0,0.0,0.0,0.0,0.0,0.0,0,1,0
0.42498779296875,200.5399932861328,0.0,17.0,-0.009491506032645702,0.0,0.0,881.0909423828125,0.0,0.10099999606609344,0.0,0.0002099999983329326,0.0,0.0,0.0,0.0,0.0,0.0,0,1,0
0.43328857421875,208.0,0.0,17.0,-0.009491506032645702,0.0,0.0,895.1309814453125,0.0,0.10099999606609344,0.0,0.0002099999983329326,0.0,0.0,0.0,0.0,0.0,0.0,0,1,0
0.441650390625,215.5800018310547,0.0,17.0,-0.009491506032645702,0.0,0.0,909.0509643554688,0.0,0.10099999606609344,0.0,0.0002099999983329326,0.0,0.0,0.0,0.0,0.0,0.0,0,1,0
0.449951171875,223.26998901367188,0.0,17.0,-0.009491506032645702,0.0,0.0,922.8509521484375,0.0,0.10099999606609344,0.0,0.0002099999983329326,0.0,0.0,0.0,0.0,0.0,0.0,0,1,0
0.45831298828125,231.0699920654297,0.0,17.0,-0.009491506032645702,0.0,0.0,936.5309448242188,0.0,0.10099999606609344,0.0,0.0002099999983329326,0.0,0.0,0.0,0.0,0.0,0.0,0,1,0
0.46661376953125,238.989990234375,0.0,17.0,-0.009491506032645702,0.0,0.0,950.1009521484375,0.0,0.10099999606609344,0.0,0.00030999997397884727,0.0,0.0,0.0,0.0,0.0,0.0,0,1,0
0.4749755859375,247.01998901367188,0.0,17.0,-0.009491506032645702,0.0,0.0,963.5509643554688,0.0,0.10099999606609344,0.0,0.00030999997397884727,0.0,0.0,0.0,0.0,0.0,0.0,0,1,0
0.48333740234375,255.1599884033203,0.0,17.0,-0.009491506032645702,0.0,0.0,976.8809814453125,0.0,0.10099999606609344,0.0,0.00030999997397884727,0.0,0.0,0.0,0.0,0.0,0.0,0,1,0
0.49163818359375,263.4100036621094,0.0,17.0,-0.009491506032645702,0.0,0.0,990.1009521484375,0.0,0.10099999606609344,0.0,0.00030999997397884727,0.0,0.0,0.0,0.0,0.0,0.0,0,1,0
0.5,271.7699890136719,0.0,17.0,-0.009491506032645702,0.0,0.0,1003.2109375,0.0,0.10099999606609344,0.0,0.00030999997397884727,0.0,0.0,0.0,0.0,0.0,0.0,0,1,0
0.50830078125,280.239990234375,0.0,17.0,-0.009491506032645702,0.0,0.0,1016.200927734375,0.0,0.10099999606609344,0.0,0.00030999997397884727,0.0,0.0,0.0,0.0,0.0,0.0,0,1,0
0.51666259765625,288.82000732421875,0.0,17.0,-0.009491506032645702,0.0,0.0,1029.0809326171875,0.0,0.10099999606609344,0.0,0.0004099999787285924,0.0,0.0,0.0,0.0,0.0,0.0,0,1,0
0.52496337890625,297.5,0.0,17.0,-0.009491506032645702,0.0,0.0,1041.8509521484375,0.0,0.10099999606609344,0.0,0.0004099999787285924,0.0,0.0,0.0,0.0,0.0,0.0,0,1,0
0.5333251953125,306.28997802734375,0.0,17.0,-0.009491506032645702,0.0,0.0,1054.510986328125,0.0,0.10099999606609344,0.0,0.0004099999787285924,0.0,0.0,0.0,0.0,0.0,0.0,0,1,0
0.5416259765625,315.17999267578125,0.0,17.0,-0.009491506032645702,0.0,0.0,1067.0609130859375,0.0,0.10099999606609344,0.0,0.0004099999787285924,0.0,0.0,0.0,0.0,0.0,0.0,0,1,0
0.54998779296875,324.17999267578125,0.0,17.0,-0.009491506032645702,0.0,0.0,1079.510986328125,0.0,0.10099999606609344,0.0,0.0004099999787285924,0.0,0.0,0.0,0.0,0.0,0.0,0,1,0
0.55828857421875,333.2799987792969,0.0,17.0,-0.009491506032645702,0.0,0.0,1091.8509521484375,0.0,0.10099999606609344,0.0,0.0004099999787285924,0.0,0.0,0.0,0.0,0.0,0.0,0,1,0
0.566650390625,342.47998046875,0.0,17.0,-0.009491506032645702,0.0,0.0,1104.0809326171875,0.0,0.10099999606609344,0.0,0.0004099999787285924,0.0,0.0,0.0,0.0,0.0,0.0,0,1,0
0.574951171875,351.7799987792969,0.0,17.0,-0.009491506032645702,0.0,0.0,1116.2109375,0.0,0.10099999606609344,0.0,0.0005099999834783375,0.0,0.0,0.0,0.0,0.0,0.0,0,1,0
0.58331298828125,361.17999267578125,0.0,17.0,-0.009491506032645702,0.0,0.0,1128.240966796875,0.0,0.10099999606609344,0.0,0.0005099999834783375,0.0,0.0,0.0,0.0,0.0,0.0,0,1,0
0.59161376953125,370.67999267578125,0.0,17.0,-0.009491506032645702,0.0,0.0,1140.1610107421875,0.0,0.10099999606609344,0.0,0.0005099999834783375,0.0,0.0,0.0,0.0,0.0,0.0,0,1,0
0.5999755859375,380.2799987792969,0.0,17.0,-0.009491506032645702,0.0,0.0,1151.98095703125,0.0,0.10099999606609344,0.0,0.0005099999834783375,0.0,0.0,0.0,0.0,0.0,0.0,0,1,0
0.60833740234375,389.97998046875,0.0,17.0,-0.009491506032645702,0.0,0.0,1163.700927734375,0.0,0.10099999606609344,0.0,0.0005099999834783375,0.0,0.0,0.0,0.0,0.0,0.0,0,1,0
0.61663818359375,399.7699890136719,0.0,17.0,-0.009491506032645702,0.0,0.0,1175.3209228515625,0.0,0.10099999606609344,0.0,0.0005099999834783375,0.0,0.0,0.0,0.0,0.0,0.0,0,1,0
0.625,409.6600036621094,0.0,17.0,-0.009491506032645702,0.0,0.0,1186.8409423828125,0.0,0.10099999606609344,0.0,0.0006099999882280827,0.0,0.0,0.0,0.0,0.0,0.0,0,1,0
0.63330078125,419.6499938964844,0.0,17.0,-0.009491506032645702,0.0,0.0,1198.260986328125,0.0,0.10099999606609344,0.0,0.0006099999882280827,0.0,0.0,0.0,0.0,0.0,0.0,0,1,0
0.64166259765625,429.72998046875,0.0,17.0,-0.009491506032645702,0.0,0.0,1209.5809326171875,0.0,0.10099999606609344,0.0,0.0006099999882280827,0.0,0.0,0.0,0.0,0.0,0.0,0,1,0
0.64996337890625,439.8999938964844,0.0,17.0,-0.009491506032645702,0.0,0.0,1220.8109130859375,0.0,0.10099999606609344,0.0,0.0006099999882280827,0.0,0.0,0.0,0.0,0.0,0.0,0,1,0
0.6583251953125,450.16998291015625,0.0,17.0,-0.009491506032645702,0.0,0.0,1231.94091796875,0.0,0.10099999606609344,0.0,0.0006099999882280827,0.0,0.0,0.0,0.0,0.0,0.0,0,1,0
0.6666259765625,460.5299987792969,0.0,17.0,-0.009491506032645702,0.0,0.0,1242.970947265625,0.0,0.10099999606609344,0.0,0.0006099999882280827,0.0,0.0,0.0,0.0,0.0,0.0,0,1,0
0.67498779296875,470.97998046875,0.0,17.0,-0.009491506032645702,0.0,0.0,1253.910888671875,0.0,0.10099999606609344,0.0,0.0006099999882280827,0.0,0.0,0.0,0.0,0.0,0.0,0,1,0
0.68328857421875,481.5199890136719,0.0,17.0,-0.009491506032645702,0.0,0.0,1264.760986328125,0.0,0.10099999606609344,0.0,0.0006099999882280827,0.0,0.0,0.0,0.0,0.0,0.0,0,1,0
0.691650390625,492.1499938964844,0.0,17.0,-0.009491506032645702,0.0,0.0,1275.510986328125,0.0,0.10099999606609344,0.0,0.0005099999834783375,0.0,0.0,0.0,0.0,0.0,0.0,0,1,0
0.699951171875,502.8699951171875,0.0,17.0,-0.009491506032645702,0.0,0.0,1286.1708984375,0.0,0.10099999606609344,0.0,0.0005099999834783375,0.0,0.0,0.0,0.0,0.0,0.0,0,1,0
0.70831298828125,513.6799926757812,0.0,17.0,-0.009491506032645702,0.0,0.0,1296.740966796875,0.0,0.10099999606609344,0.0,0.0005099999834783375,0.0,0.0,0.0,0.0,0.0,0.0,0,1,0
0.71661376953125,524.5700073242188,0.0,17.0,-0.009491506032645702,0.0,0.0,1307.220947265625,0.0,0.10099999606609344,0.0,0.0005099999834783375,0.0,0.0,0.0,0.0,0.0,0.0,0,1,0
0.7249755859375,535.5499877929688,0.0,17.0,-0.009491506032645702,0.0,0.0,1317.6109619140625,0.0,0.10099999606609344,0.0,0.0005099999834783375,0.0,0.0,0.0,0.0,0.0,0.0,0,1,0
0.73333740234375,546.6199951171875,0.0,17.0,-0.009491506032645702,0.0,0.0,1327.910888671875,0.0,0.10099999606609344,0.0,0.0005099999834783375,0.0,0.0,0.0,0.0,0.0,0.0,0,1,0
0.74163818359375,557.7699584960938,0.0,17.0,-0.009491506032645702,0.0,0.0,1338.1209716796875,0.0,0.10099999606609344,0.0,0.0005099999834783375,0.0,0.0,0.0,0.0,0.0,0.0,0,1,0
0.75,569.010009765625,0.0,17.0,-0.009491506032645702,0.0,0.0,1348.240966796875,0.0,0.10099999606609344,0.0,0.0005099999834783375,0.0,0.0,0.0,0.0,0.0,0.0,0,1,0
0.75830078125,580.3300170898438,0.0,17.0,-0.009491506032645702,0.0,0.0,1358.281005859375,0.0,0.10099999606609344,0.0,0.0005099999834783375,0.0,0.0,0.0,0.0,0.0,0.0,0,1,0
0.76666259765625,591.72998046875,0.0,17.0,-0.009491506032645702,0.0,0.0,1368.23095703125,0.0,0.10099999606609344,0.0,0.0005099999834783375,0.0,0.0,0.0,0.0,0.0,0.0,0,1,0
0.77496337890625,603.2099609375,0.0,17.0,-0.009491506032645702,0.0,0.0,1378.1009521484375,0.0,0.10099999606609344,0.0,0.0005099999834783375,0.0,0.0,0.0,0.0,0.0,0.0,0,1,0
0.7833251953125,614.7799682617188,0.0,17.0,-0.009491506032645702,0.0,0.0,1387.8809814453125,0.0,0.10099999606609344,0.0,0.0005099999834783375,0.0,0.0,0.0,0.0,0.0,0.0,0,1,0
0.7916259765625,626.4299926757812,0.0,17.0,-0.009491506032645702,0.0,0.0,1397.5809326171875,0.0,0.10099999606609344,0.0,0.0005099999834783375,0.0,0.0,0.0,0.0,0.0,0.0,0,1,0
0.79998779296875,638.1599731445312,0.0,17.0,-0.009491506032645702,0.0,0.0,1407.19091796875,0.0,0.10099999606609344,0.0,0.0006099999882280827,0.0,0.0,0.0,0.0,0.0,0.0,0,1,0
0.80828857421875,649.9599609375,0.0,17.0,-0.009491506032645702,0.0,0.0,1415.8309326171875,0.0,0.10099999606609344,0.0,0.0007099999929778278,0.0,0.0,0.0,0.0,0.0,0.0,0,1,0
0.816650390625,661.8299560546875,0.0,17.0,-0.009587380103766918,0.0,0.0,1424.0909423828125,0.0,0.10099999606609344,0.0,0.0007099999929778278,0.0,0.0,0.0,0.0,0.0,0.0,0,1,0
0.824951171875,673.7699584960938,0.0,17.0,-0.009587380103766918,0.0,0.0,1432.3509521484375,0.0,0.10099999606609344,0.0,0.0006099999882280827,0.0,0.0,0.0,0.0,0.0,0.0,0,1,0
0.83331298828125,685.7799682617188,0.0,17.0,-0.009587380103766918,0.0,0.0,1440.6109619140625,0.0,0.10099999606609344,0.0,0.0005099999834783375,0.0,0.0,0.0,0.0,0.0,0.0,0,1,0
0.84161376953125,697.8499755859375,0.0,17.0,-0.009587380103766918,0.0,0.0,1448.8709716796875,0.0,0.10099999606609344,0.0,0.0005099999834783375,0.0,0.0,0.0,0.0,0.0,0.0,0,1,0
0.8499755859375,709.989990234375,0.0,17.0,-0.009587380103766918,0.0,0.0,1457.1309814453125,0.0,0.10099999606609344,0.0,0.0005099999834783375,0.0,0.0,0.0,0.0,0.0,0.0,0,1,0
0.85833740234375,722.2000122070312,0.0,17.0,-0.009587380103766918,0.0,0.0,1465.3909912109375,0.0,0.10099999606609344,0.0,0.0005099999834783375,0.0,0.0,0.0,0.0,0.0,0.0,0,1,0
0.86663818359375,734.47998046875,0.0,17.0,-0.009587380103766918,0.0,0.0,1473.6510009765625,0.0,0.10099999606609344,0.0,0.0005099999834783375,0.0,0.0,0.0,0.0,0.0,0.0,0,1,0
0.875,746.8299560546875,0.0,17.0,-0.009587380103766918,0.0,0.0,1481.910888671875,0.0,0.10099999606609344,0.0,0.0005099999834783375,0.0,0.0,0.0,0.0,0.0,0.0,0,1,0
0.88330078125,759.25,0.0,17.0,-0.009587380103766918,0.0,0.0,1490.1708984375,0.0,0.10099999606609344,0.0,0.0005099999834783375,0.0,0.0,0.0,0.0,0.0,0.0,0,1,0
0.89166259765625,771.739990234375,0.0,17.0,-0.009587380103766918,0.0,0.0,1498.430908203125,0.0,0.10099999606609344,0.0,0.0005099999834783375,0.0,0.0,0.0,0.0,0.0,0.0,0,1,0
0.89996337890625,784.2999877929688,0.0,17.0,-0.009587380103766918,0.0,0.0,1506.69091796875,0.0,0.10099999606609344,0.0,0.0005099999834783375,0.0,0.0,0.0,0.0,0.0,0.0,0,1,0
0.9083251953125,796.9199829101562,0.0,17.0,-0.009587380103766918,0.0,0.0,1514.950927734375,0.0,0.10099999606609344,0.0,0.0005099999834783375,0.0,0.0,0.0,0.0,0.0,0.0,0,1,0
0.9166259765625,809.6099853515625,0.0,17.0,-0.009587380103766918,0.0,0.0,1523.2109375,0.0,0.10099999606609344,0.0,0.0005099999834783375,0.0,0.0,0.0,0.0,0.0,0.0,0,1,0
0.92498779296875,822.3699951171875,0.0,17.0,-0.009587380103766918,0.0,0.0,1531.470947265625,0.0,0.10099999606609344,0.0,0.0005099999834783375,0.0,0.0,0.0,0.0,0.0,0.0,0,1,0
0.93328857421875,835.199951171875,0.0,17.0,-0.009587380103766918,0.0,0.0,1539.73095703125,0.0,0.10099999606609344,0.0,0.0005099999834783375,0.0,0.0,0.0,0.0,0.0,0.0,0,1,0
0.941650390625,848.0999755859375,0.0,17.0,-0.009587380103766918,0.0,0.0,1547.990966796875,0.0,0.10099999606609344,0.0,0.0005099999834783375,0.0,0.0,0.0,0.0,0.0,0.0,0,1,0
0.949951171875,861.0700073242188,0.0,17.0,-0.009587380103766918,0.0,0.0,1556.2509765625,0.0,0.10099999606609344,0.0,0.0005099999834783375,0.0,0.0,0.0,0.0,0.0,0.0,0,1,0
0.95831298828125,874.1099853515625,0.0,17.0,-0.009587380103766918,0.0,0.0,1564.510986328125,0.0,0.10099999606609344,0.0,0.0005099999834783375,0.0,0.0,0.0,0.0,0.0,0.0,0,1,0
0.96661376953125,887.219970703125,0.0,17.0,-0.009587380103766918,0.0,0.0,1572.77099609375,0.0,0.10099999606609344,0.0,0.0005099999834783375,0.0,0.0,0.0,0.0,0.0,0.0,0,1,0
0.9749755859375,900.3999633789062,0.0,17.0,-0.009587380103766918,0.0,0.0,1581.0308837890625,0.0,0.10099999606609344,0.0,0.0005099999834783375,0.0,0.0,0.0,0.0,0.0,0.0,0,1,0
0.98333740234375,913.6399536132812,0.0,17.0,-0.009587380103766918,0.0,0.0,1589.2908935546875,0.0,0.10099999606609344,0.0,0.0005099999834783375,0.0,0.0,0.0,0.0,0.0,0.0,0,1,0
0.99163818359375,926.949951171875,0.0,17.0,-0.009587380103766918,0.0,0.0,1597.5509033203125,0.0,0.10099999606609344,0.0,0.0005099999834783375,0.0,0.0,0.0,0.0,0.0,0.0,0,1,0
1.0,940.3299560546875,0.0,17.0,-0.009587380103766918,0.0,0.0,1605.8109130859375,0.0,0.10099999606609344,0.0,0.0005099999834783375,0.0,0.0,0.0,0.0,0.0,0.0,0,1,0
1.00830078125,953.7799682617188,0.0,17.0,-0.009587380103766918,0.0,0.0,1614.0709228515625,0.0,0.10099999606609344,0.0,0.0005099999834783375,0.0,0.0,0.0,0.0,0.0,0.0,0,1,0
1.01666259765625,967.2999877929688,0.0,17.0,-0.009587380103766918,0.0,0.0,1622.3309326171875,0.0,0.10099999606609344,0.0,0.0005099999834783375,0.0,0.0,0.0,0.0,0.0,0.0,0,1,0
1.02496337890625,980.8899536132812,0.0,17.0,-0.009587380103766918,0.0,0.0,1630.5909423828125,0.0,0.10099999606609344,0.0,0.0005099999834783375,0.0,0.0,0.0,0.0,0.0,0.0,0,1,0
1.0333251953125,994.5499877929688,0.0,17.0,-0.009587380103766918,0.0,0.0,1638.8509521484375,0.0,0.10099999606609344,0.0,0.0005099999834783375,0.0,0.0,0.0,0.0,0.0,0.0,0,1,0
1.0416259765625,1008.2799682617188,0.0,17.0,-0.009587380103766918,0.0,0.0,1647.1109619140625,0.0,0.10099999606609344,0.0,0.0005099999834783375,0.0,0.0,0.0,0.0,0.0,0.0,0,1,0
1.04998779296875,1022.0700073242188,0.0,17.0,-0.009587380103766918,0.0,0.0,1655.3709716796875,0.0,0.10099999606609344,0.0,0.0005099999834783375,0.0,0.0,0.0,0.0,0.0,0.0,0,1,0
1.05828857421875,1035.929931640625,0.0,17.0,-0.009587380103766918,0.0,0.0,1663.6309814453125,0.0,0.10099999606609344,0.0,0.0005099999834783375,0.0,0.0,0.0,0.0,0.0,0.0,0,1,0
1.066650390625,1049.8599853515625,0.0,17.0,-0.009587380103766918,0.0,0.0,1671.8909912109375,0.0,0.10099999606609344,0.0,0.0005099999834783375,0.0,0.0,0.0,0.0,0.0,0.0,0,1,0
1.074951171875,1063.8599853515625,0.0,17.0,-0.009587380103766918,0.0,0.0,1680.15087890625,0.0,0.10099999606609344,0.0,0.0005099999834783375,0.0,0.0,0.0,0.0,0.0,0.0,0,1,0
1.08331298828125,1077.929931640625,0.0,17.0,-0.009587380103766918,0.0,0.0,1688.410888671875,0.0,0.10099999606609344,0.0,0.0005099999834783375,0.0,0.0,0.0,0.0,0.0,0.0,0,1,0
1.09161376953125,1092.0699462890625,0.0,17.0,-0.009587380103766918,0.0,0.0,1696.6708984375,0.0,0.10099999606609344,0.0,0.0005099999834783375,0.0,0.0,0.0,0.0,0.0,0.0,0,1,0
1.0999755859375,1106.280029296875,0.0,17.0,-0.009587380103766918,0.0,0.0,1704.930908203125,0.0,0.10099999606609344,0.0,0.0005099999834783375,0.0,0.0,0.0,0.0,0.0,0.0,0,1,0
1.10833740234375,1120.5599365234375,0.0,17.0,-0.009587380103766918,0.0,0.0,1713.19091796875,0.0,0.10099999606609344,0.0,0.0005099999834783375,0.0,0.0,0.0,0.0,0.0,0.0,0,1,0
1.11663818359375,1134.9100341796875,0.0,17.0,-0.009587380103766918,0.0,0.0,1721.450927734375,0.0,0.10099999606609344,0.0,0.0005099999834783375,0.0,0.0,0.0,0.0,0.0,0.0,0,1,0
1.125,1149.3199462890625,0.0,17.0,-0.009587380103766918,0.0,0.0,1729.7109375,0.0,0.10099999606609344,0.0,0.0005099999834783375,0.0,0.0,0.0,0.0,0.0,0.0,0,1,0
1.13330078125,1163.7999267578125,0.0,17.0,-0.009587380103766918,0.0,0.0,1737.970947265625,0.0,0.10099999606609344,0.0,0.0005099999834783375,0.0,0.0,0.0,0.0,0.0,0.0,0,1,0
1.14166259765625,1178.3499755859375,0.0,17.0,-0.009587380103766918,0.0,0.0,1746.23095703125,0.0,0.10099999606609344,0.0,0.0005099999834783375,0.0,0.0,0.0,0.0,0.0,0.0,0,1,0
1.14996337890625,1192.969970703125,0.0,17.0,-0.009587380103766918,0.0,0.0,1754.490966796875,0.0,0.10099999606609344,0.0,0.0005099999834783375,0.0,0.0,0.0,0.0,0.0,0.0,0,1,0
1.1583251953125,1207.659912109375,0.0,17.0,-0.009587380103766918,0.0,0.0,1762.7509765625,0.0,0.10099999606609344,0.0,0.0005099999834783375,0.0,0.0,0.0,0.0,0.0,0.0,0,1,0
1.1666259765625,1222.419921875,0.0,17.0,-0.009587380103766918,0.0,0.0,1771.010986328125,0.0,0.10099999606609344,0.0,0.0005099999834783375,0.0,0.0,0.0,0.0,0.0,0.0,0,1,0
1.17498779296875,1237.25,0.0,17.0,-0.009587380103766918,0.0,0.0,1779.27099609375,0.0,0.10099999606609344,0.0,0.0005099999834783375,0.0,0.0,0.0,0.0,0.0,0.0,0,1,0
1.18328857421875,1252.1500244140625,0.0,17.0,-0.009587380103766918,0.0,0.0,1787.5308837890625,0.0,0.10099999606609344,0.0,0.0005099999834783375,0.0,0.0,0.0,0.0,0.0,0.0,0,1,0
1.191650390625,1267.1099853515625,0.0,17.0,-0.009587380103766918,0.0,0.0,1795.7908935546875,0.0,0.10099999606609344,0.0,0.0005099999834783375,0.0,0.0,0.0,0.0,0.0,0.0,0,1,0
1.199951171875,1282.1400146484375,0.0,17.0,-0.009587380103766918,0.0,0.0,1804.0509033203125,0.0,0.10099999606609344,0.0,0.0005099999834783375,0.0,0.0,0.0,0.0,0.0,0.0,0,1,0
1.20831298828125,1297.239990234375,0.0,17.0,-0.009587380103766918,0.0,0.0,1812.3109130859375,0.0,0.10099999606609344,0.0,0.0005099999834783375,0.0,0.0,0.0,0.0,0.0,0.0,0,1,0
1.21661376953125,1312.409912109375,0.0,17.0,-0.009587380103766918,0.0,0.0,1820.5709228515625,0.0,0.10099999606609344,0.0,0.0005099999834783375,0.0,0.0,0.0,0.0,0.0,0.0,0,1,0
1.2249755859375,1327.6500244140625,0.0,17.0,-0.009587380103766918,0.0,0.0,1828.8309326171875,0.0,0.10099999606609344,0.0,0.0005099999834783375,0.0,0.0,0.0,0.0,0.0,0.0,0,1,0
1.23333740234375,1342.9599609375,0.0,17.0,-0.009587380103766918,0.0,0.0,1837.0909423828125,0.0,0.10099999606609344,0.0,0.0005099999834783375,0.0,0.0,0.0,0.0,0.0,0.0,0,1,0
1.24163818359375,1358.3399658203125,0.0,17.0,-0.009587380103766918,0.0,0.0,1845.3509521484375,0.0,0.10099999606609344,0.0,0.0005099999834783375,0.0,0.0,0.0,0.0,0.0,0.0,0,1,0
1.25,1373.7899169921875,0.0,17.0,-0.009587380103766918,0.0,0.0,1853.6109619140625,0.0,0.10099999606609344,0.0,0.0005099999834783375,0.0,0.0,0.0,0.0,0.0,0.0,0,1,0
1.25830078125,1389.3099365234375,0.0,17.0,-0.009587380103766918,0.0,0.0,1861.8709716796875,0.0,0.10099999606609344,0.0,0.0005099999834783375,0.0,0.0,0.0,0.0,0.0,0.0,0,1,0
1.26666259765625,1404.8900146484375,0.0,17.0,-0.009587380103766918,0.0,0.0,1870.1309814453125,0.0,0.10099999606609344,0.0,0.0005099999834783375,0.0,0.0,0.0,0.0,0.0,0.0,0,1,0
1.27496337890625,1420.5399169921875,0.0,17.0,-0.009587380103766918,0.0,0.0,1878.3909912109375,0.0,0.10099999606609344,0.0,0.0005099999834783375,0.0,0.0,0.0,0.0,0.0,0.0,0,1,0
1.2833251953125,1436.260009765625,0.0,17.0,-0.009587380103766918,0.0,0.0,1886.65087890625,0.0,0.10099999606609344,0.0,0.0005099999834783375,0.0,0.0,0.0,0.0,0.0,0.0,0,1,0
1.2916259765625,1452.0499267578125,0.0,17.0,-0.009587380103766918,0.0,0.0,1894.910888671875,0.0,0.10099999606609344,0.0,0.0005099999834783375,0.0,0.0,0.0,0.0,0.0,0.0,0,1,0
1.29998779296875,1467.909912109375,0.0,17.0,-0.009587380103766918,0.0,0.0,1903.1708984375,0.0,0.10099999606609344,0.0,0.0005099999834783375,0.0,0.0,0.0,0.0,0.0,0.0,0,1,0
1.30828857421875,1483.8399658203125,0.0,17.0,-0.009587380103766918,0.0,0.0,1911.430908203125,0.0,0.10099999606609344,0.0,0.0005099999834783375,0.0,0.0,0.0,0.0,0.0,0.0,0,1,0
1.316650390625,1499.8399658203125,0.0,17.0,-0.009587380103766918,0.0,0.0,1919.69091796875,0.0,0.10099999606609344,0.0,0.0005099999834783375,0.0,0.0,0.0,0.0,0.0,0.0,0,1,0
1.324951171875,1515.909912109375,0.0,17.0,-0.009587380103766918,0.0,0.0,1927.950927734375,0.0,0.10099999606609344,0.0,0.0005099999834783375,0.0,0.0,0.0,0.0,0.0,0.0,0,1,0
1.33331298828125,1532.0499267578125,0.0,17.0,-0.009587380103766918,0.0,0.0,1936.2109375,0.0,0.10099999606609344,0.0,0.0005099999834783375,0.0,0.0,0.0,0.0,0.0,0.0,0,1,0
1.34161376953125,1548.25,0.0,17.0,-0.009587380103766918,0.0,0.0,1944.470947265625,0.0,0.10099999606609344,0.0,0.0005099999834783375,0.0,0.0,0.0,0.0,0.0,0.0,0,1,0
1.3499755859375,1564.52001953125,0.0,17.0,-0.009587380103766918,0.0,0.0,1952.73095703125,0.0,0.10099999606609344,0.0,0.0005099999834783375,0.0,0.0,0.0,0.0,0.0,0.0,0,1,0
1.35833740234375,1580.8599853515625,0.0,17.0,-0.009587380103766918,0.0,0.0,1960.990966796875,0.0,0.10099999606609344,0.0,0.0005099999834783375,0.0,0.0,0.0,0.0,0.0,0.0,0,1,0
1.36663818359375,1597.27001953125,0.0,17.0,-0.009587380103766918,0.0,0.0,1969.2509765625,0.0,0.10099999606609344,0.0,0.0005099999834783375,0.0,0.0,0.0,0.0,0.0,0.0,0,1,0
1.375,1613.75,0.0,17.0,-0.009587380103766918,0.0,0.0,1977.510986328125,0.0,0.10099999606609344,0.0,0.0005099999834783375,0.0,0.0,0.0,0.0,0.0,0.0,0,1,0
1.38330078125,1630.2999267578125,0.0,17.0,-0.009587380103766918,0.0,0.0,1985.7708740234375,0.0,0.10099999606609344,0.0,0.0005099999834783375,0.0,0.0,0.0,0.0,0.0,0.0,0,1,0
1.39166259765625,1646.919921875,0.0,17.0,-0.009587380103766918,0.0,0.0,1994.0308837890625,0.0,0.10099999606609344,0.0,0.0005099999834783375,0.0,0.0,0.0,0.0,0.0,0.0,0,1,0
1.39996337890625,1663.6099853515625,0.0,17.0,-0.009587380103766918,0.0,0.0,2002.2908935546875,0.0,0.10099999606609344,0.0,0.0005099999834783375,0.0,0.0,0.0,0.0,0.0,0.0,0,1,0
1.4083251953125,1680.3599853515625,0.0,17.0,-0.009587380103766918,0.0,0.0,2010.5509033203125,0.0,0.10099999606609344,0.0,0.0005099999834783375,0.0,0.0,0.0,0.0,0.0,0.0,0,1,0
1.4166259765625,1697.179931640625,0.0,17.0,-0.009587380103766918,0.0,0.0,2018.8109130859375,0.0,0.10099999606609344,0.0,0.0005099999834783375,0.0,0.0,0.0,0.0,0.0,0.0,0,1,0
1.42498779296875,1714.0699462890625,0.0,17.0,-0.009587380103766918,0.0,0.0,2027.0709228515625,0.0,0.10099999606609344,0.0,0.0005099999834783375,0.0,0.0,0.0,0.0,0.0,0.0,0,1,0
1.43328857421875,1731.0299072265625,0.0,17.0,-0.009587380103766918,0.0,0.0,2035.3309326171875,0.0,0.10099999606609344,0.0,0.0005099999834783375,0.0,0.0,0.0,0.0,0.0,0.0,0,1,0
1.441650390625,1748.0599365234375,0.0,17.0,-0.009587380103766918,0.0,0.0,2043.5909423828125,0.0,0.10099999606609344,0.0,0.0005099999834783375,0.0,0.0,0.0,0.0,0.0,0.0,0,1,0
1.449951171875,1765.159912109375,0.0,17.0,-0.009587380103766918,0.0,0.0,2051.850830078125,0.0,0.10099999606609344,0.0,0.0005099999834783375,0.0,0.0,0.0,0.0,0.0,0.0,0,1,0
1.45831298828125,1782.3299560546875,0.0,17.0,-0.009587380103766918,0.0,0.0,2060.11083984375,0.0,0.10099999606609344,0.0,0.0005099999834783375,0.0,0.0,0.0,0.0,0.0,0.0,0,1,0
1.46661376953125,1799.5699462890625,0.0,17.0,-0.009587380103766918,0.0,0.0,2068.370849609375,0.0,0.10099999606609344,0.0,0.0005099999834783375,0.0,0.0,0.0,0.0,0.0,0.0,0,1,0
1.4749755859375,1816.8800048828125,0.0,17.0,-0.009587380103766918,0.0,0.0,2076.630859375,0.0,0.10099999606609344,0.0,0.0005099999834783375,0.0,0.0,0.0,0.0,0.0,0.0,0,1,0
1.48333740234375,1834.25,0.0,17.0,-0.009587380103766918,0.0,0.0,2084.890869140625,0.0,0.10099999606609344,0.0,0.0005099999834783375,0.0,0.0,0.0,0.0,0.0,0.0,0,1,0
1.49163818359375,1851.68994140625,0.0,17.0,-0.009587380103766918,0.0,0.0,2093.15087890625,0.0,0.10099999606609344,0.0,0.0005099999834783375,0.0,0.0,0.0,0.0,0.0,0.0,0,1,0
1.5,1869.199951171875,0.0,17.0,-0.009587380103766918,0.0,0.0,2101.410888671875,0.0,0.10099999606609344,0.0,0.0005099999834783375,0.0,0.0,0.0,0.0,0.0,0.0,0,1,0
1.50830078125,1886.7799072265625,0.0,17.0,-0.009587380103766918,0.0,0.0,2109.6708984375,0.0,0.10099999606609344,0.0,0.0005099999834783375,0.0,0.0,0.0,0.0,0.0,0.0,0,1,0
1.51666259765625,1904.429931640625,0.0,17.0,-0.009587380103766918,0.0,0.0,2117.930908203125,0.0,0.10099999606609344,0.0,0.0005099999834783375,0.0,0.0,0.0,0.0,0.0,0.0,0,1,0
1.52496337890625,1922.14990234375,0.0,17.0,-0.009587380103766918,0.0,0.0,2126.19091796875,0.0,0.10099999606609344,0.0,0.0005099999834783375,0.0,0.0,0.0,0.0,0.0,0.0,0,1,0
1.5333251953125,1939.93994140625,0.0,17.0,-0.009587380103766918,0.0,0.0,2134.450927734375,0.0,0.10099999606609344,0.0,0.0005099999834783375,0.0,0.0,0.0,0.0,0.0,0.0,0,1,0
1.5416259765625,1957.7999267578125,0.0,17.0,-0.009587380103766918,0.0,0.0,2142.7109375,0.0,0.10099999606609344,0.0,0.0005099999834783375,0.0,0.0,0.0,0.0,0.0,0.0,0,1,0
1.54998779296875,1975.719970703125,0.0,17.0,-0.009587380103766918,0.0,0.0,2150.970947265625,0.0,0.10099999606609344,0.0,0.0005099999834783375,0.0,0.0,0.0,0.0,0.0,0.0,0,1,0
1.55828857421875,1993.7099609375,0.0,17.0,-0.009587380103766918,0.0,0.0,2159.23095703125,0.0,0.10099999606609344,0.0,0.0005099999834783375,0.0,0.0,0.0,0.0,0.0,0.0,0,1,0
1.566650390625,2011.7698974609375,0.0,17.0,-0.009587380103766918,0.0,0.0,2167.490966796875,0.0,0.10099999606609344,0.0,0.0005099999834783375,0.0,0.0,0.0,0.0,0.0,0.0,0,1,0
1.574951171875,2029.89990234375,0.0,17.0,-0.009587380103766918,0.0,0.0,2175.7509765625,0.0,0.10099999606609344,0.0,0.0005099999834783375,0.0,0.0,0.0,0.0,0.0,0.0,0,1,0
1.58331298828125,2048.099853515625,0.0,17.0,-0.009587380103766918,0.0,0.0,2184.010986328125,0.0,0.10099999606609344,0.0,0.0005099999834783375,0.0,0.0,0.0,0.0,0.0,0.0,0,1,0
1.59161376953125,2066.369873046875,0.0,17.0,-0.009587380103766918,0.0,0.0,2192.27099609375,0.0,0.10099999606609344,0.0,0.0005099999834783375,0.0,0.0,0.0,0.0,0.0,0.0,0,1,0
1.5999755859375,2084.7099609375,0.0,17.0,-0.009587380103766918,0.0,0.0,2200.531005859375,0.0,0.10099999606609344,0.0,0.0005099999834783375,0.0,0.0,0.0,0.0,0.0,0.0,0,1,0
1.60833740234375,2103.119873046875,0.0,17.0,-0.009587380103766918,0.0,0.0,2208.791015625,0.0,0.10099999606609344,0.0,0.0005099999834783375,0.0,0.0,0.0,0.0,0.0,0.0,0,1,0
1.61663818359375,2121.599853515625,0.0,17.0,-0.009587380103766918,0.0,0.0,2217.051025390625,0.0,0.10099999606609344,0.0,0.0005099999834783375,0.0,0.0,0.0,0.0,0.0,0.0,0,1,0
1.625,2140.139892578125,0.0,17.0,-0.009587380103766918,0.0,0.0,2225.31103515625,0.0,0.10099999606609344,0.0,0.0005099999834783375,0.0,0.0,0.0,0.0,0.0,0.0,0,1,0
1.63330078125,2158.75,0.0,17.0,-0.009587380103766918,0.0,0.0,2233.571044921875,0.0,0.10099999606609344,0.0,0.0005099999834783375,0.0,0.0,0.0,0.0,0.0,0.0,0,1,0
1.64166259765625,2177.429931640625,0.0,17.0,-0.009587380103766918,0.0,0.0,2241.830810546875,0.0,0.10099999606609344,0.0,0.0005099999834783375,0.0,0.0,0.0,0.0,0.0,0.0,0,1,0
1.64996337890625,2196.179931640625,0.0,17.0,-0.009587380103766918,0.0,0.0,2250.0908203125,0.0,0.10099999606609344,0.0,0.0005099999834783375,0.0,0.0,0.0,0.0,0.0,0.0,0,1,0
1.6583251953125,2215.0,0.0,17.0,-0.009587380103766918,0.0,0.0,2258.350830078125,0.0,0.10099999606609344,0.0,0.0005099999834783375,0.0,0.0,0.0,0.0,0.0,0.0,0,1,0
1.6666259765625,2233.889892578125,0.0,17.0,-0.009587380103766918,0.0,0.0,2266.61083984375,0.0,0.10099999606609344,0.0,0.0005099999834783375,0.0,0.0,0.0,0.0,0.0,0.0,0,1,0
1.67498779296875,2252.849853515625,0.0,17.0,-0.009587380103766918,0.0,0.0,2274.870849609375,0.0,0.10099999606609344,0.0,0.0005099999834783375,0.0,0.0,0.0,0.0,0.0,0.0,0,1,0
1.68328857421875,2271.8798828125,0.0,17.0,-0.009587380103766918,0.0,0.0,2283.130859375,0.0,0.10099999606609344,0.0,0.0005099999834783375,0.0,0.0,0.0,0.0,0.0,0.0,0,1,0
1.691650390625,2290.969970703125,0.0,17.0,-0.009587380103766918,0.0,0.0,2291.390869140625,0.0,0.10099999606609344,0.0,0.0005099999834783375,0.0,0.0,0.0,0.0,0.0,0.0,0,1,0
1.699951171875,2310.1298828125,0.0,17.0,-0.009587380103766918,0.0,0.0,2299.65087890625,0.0,0.10099999606609344,0.0,0.0005099999834783375,0.0,0.0,0.0,0.0,0.0,0.0,0,1,0
